[
  {
    "lat": 621954.2041,
    "lon": 2353014.539,
    "island": "Oahu",
    "name": "Aston Waikiki Circle Hotel",
    "address": "2464 Kalakaua Avenue",
    "type": "HOTEL",
    "year_open": "1963"
  },
  {
    "lat": 622334.2216,
    "lon": 2352968.741,
    "island": "Oahu",
    "name": "Aston Waikiki Sunset",
    "address": "229 Paoakalani Avenue",
    "type": "CONDOMINIUM HOTEL",
    "year_open": "1979"
  },
  {
    "lat": 622261.2037,
    "lon": 2353028.296,
    "island": "Oahu",
    "name": "Aston at the Waikiki Banyan",
    "address": "201 Ohua Avenue",
    "type": "CONDOMINIUM HOTEL",
    "year_open": "1979"
  },
  {
    "lat": 622000.8729,
    "lon": 2353041.569,
    "island": "Oahu",
    "name": "Aston Waikiki Beach Tower",
    "address": "2470 Kalakaua Avenue",
    "type": "CONDOMINIUM HOTEL",
    "year_open": "1984"
  },
  {
    "lat": 816540.3123,
    "lon": 2171679.031,
    "island": "Hawaii",
    "name": "Aston Kona by the Sea",
    "address": "75-6106 Alii Drive",
    "type": "CONDOMINIUM HOTEL",
    "year_open": "1982"
  },
  {
    "lat": 826124.3483,
    "lon": 2205808.575,
    "island": "Hawaii",
    "name": "Aston Shores at Waikoloa",
    "address": "69-1035 Keana Place",
    "type": "CONDOMINIUM HOTEL",
    "year_open": "1987"
  },
  {
    "lat": 827012.8328,
    "lon": 2205963.252,
    "island": "Hawaii",
    "name": "Aston Waikoloa Colony Villas",
    "address": "69-555 Waikoloa Beach Drive",
    "type": "CONDOMINIUM HOTEL",
    "year_open": "2003"
  },
  {
    "lat": 739919.974,
    "lon": 2315330.603,
    "island": "Maui",
    "name": "Aston at The Whaler on Kaanapali Beach",
    "address": "2481 Kaanapali Parkway",
    "type": "CONDOMINIUM HOTEL",
    "year_open": "1975"
  },
  {
    "lat": 740510.5726,
    "lon": 2318544.599,
    "island": "Maui",
    "name": "Aston at Papakea Resort",
    "address": "3543 Lower Honoapiilani Road",
    "type": "CONDOMINIUM HOTEL",
    "year_open": "1976"
  },
  {
    "lat": 740398.9416,
    "lon": 2318204.038,
    "island": "Maui",
    "name": "Aston Kaanapali Shores",
    "address": "3445 Lower Honoapiilani Road",
    "type": "CONDOMINIUM HOTEL",
    "year_open": "1980"
  },
  {
    "lat": 740089.0582,
    "lon": 2316647.192,
    "island": "Maui",
    "name": "Aston Maui Kaanapali Villas",
    "address": "45 Kai Ala Drive",
    "type": "CONDOMINIUM HOTEL",
    "year_open": "1966"
  },
  {
    "lat": 766249.151,
    "lon": 2291802.213,
    "island": "Maui",
    "name": "Aston Maui Hill",
    "address": "2881 South Kihei Road",
    "type": "CONDOMINIUM HOTEL",
    "year_open": "1981"
  },
  {
    "lat": 765992.8951,
    "lon": 2292828.041,
    "island": "Maui",
    "name": "Aston at the Maui Banyan",
    "address": "2575 South Kihei Road",
    "type": "CONDOMINIUM HOTEL",
    "year_open": "1990"
  },
  {
    "lat": 740050.3272,
    "lon": 2317979.03,
    "island": "Maui",
    "name": "Aston Mahana at Kaanapali",
    "address": "110 Kaanapali Shores Place",
    "type": "CONDOMINIUM HOTEL",
    "year_open": "1974"
  },
  {
    "lat": 740571.1623,
    "lon": 2318740.994,
    "island": "Maui",
    "name": "Aston Paki Maui",
    "address": "3615 Lower Honoapiilani Road",
    "type": "CONDOMINIUM HOTEL",
    "year_open": "1976"
  },
  {
    "lat": 466081.1068,
    "lon": 2438778.322,
    "island": "Kauai",
    "name": "Aston Islander on the Beach",
    "address": "440 Aleka Place",
    "type": "CONDOMINIUM HOTEL",
    "year_open": "1970"
  },
  {
    "lat": 454025.165,
    "lon": 2419176.326,
    "island": "Kauai",
    "name": "Aston at Poipu Kai",
    "address": "1775 Poipu Road",
    "type": "CONDOMINIUM HOTEL",
    "year_open": "1980"
  },
  {
    "lat": 463371.7942,
    "lon": 2428227.224,
    "island": "Kauai",
    "name": "Banyan Harbor Resort",
    "address": "3411 Wilcox Road",
    "type": "CONDOMINIUM HOTEL",
    "year_open": "1978"
  },
  {
    "lat": 466227.5435,
    "lon": 2438985.582,
    "island": "Kauai",
    "name": "Plantation Hale Suites",
    "address": "525 Aleka Loop",
    "type": "CONDOMINIUM HOTEL",
    "year_open": "1973"
  },
  {
    "lat": 622040.428,
    "lon": 2353230.054,
    "island": "Oahu",
    "name": "Aqua Pacific Monarch Hotel",
    "address": "2427 Kuhio Avenue",
    "type": "CONDOMINIUM HOTEL",
    "year_open": "1976"
  },
  {
    "lat": 622169.2738,
    "lon": 2352801.632,
    "island": "Oahu",
    "name": "Renew",
    "address": "129 Paoakalani Avenue",
    "type": "HOTEL",
    "year_open": "1967"
  },
  {
    "lat": 622028.1302,
    "lon": 2353182.292,
    "island": "Oahu",
    "name": "Royal Grove Hotel",
    "address": "151 Uluniu Avenue",
    "type": "HOTEL",
    "year_open": "1952"
  },
  {
    "lat": 621822.0999,
    "lon": 2353619.042,
    "island": "Oahu",
    "name": "White Sands",
    "address": "431 Nohonani Street",
    "type": "HOTEL",
    "year_open": "1959"
  },
  {
    "lat": 889871.5245,
    "lon": 2149062.728,
    "island": "Hawaii",
    "name": "Volcano House",
    "address": "1 Crater Rim Drive",
    "type": "HOTEL",
    "year_open": "1941"
  },
  {
    "lat": 621735.6726,
    "lon": 2353566.09,
    "island": "Oahu",
    "name": "Ohia Waikiki",
    "address": "2280 Kuhio Avenue",
    "type": "HOTEL",
    "year_open": "1972"
  },
  {
    "lat": 622081.49,
    "lon": 2353000.325,
    "island": "Oahu",
    "name": "Alohilani Resort Waikiki Beach",
    "address": "2490 Kalakaua Avenue",
    "type": "HOTEL",
    "year_open": "1969"
  },
  {
    "lat": 621243.8356,
    "lon": 2354073.091,
    "island": "Oahu",
    "name": "Ambassador Hotel Waikiki",
    "address": "2040 Kuhio Avenue",
    "type": "HOTEL",
    "year_open": "1965"
  },
  {
    "lat": 828779.7796,
    "lon": 2209144.182,
    "island": "Hawaii",
    "name": "Fairmont Orchid",
    "address": "1 North Kaniku Drive",
    "type": "HOTEL",
    "year_open": "1990"
  },
  {
    "lat": 719047.6603,
    "lon": 2295019.683,
    "island": "Lanai",
    "name": "Four Seasons Resort Lanai",
    "address": "1 Manele Bay Road",
    "type": "HOTEL",
    "year_open": "1990"
  },
  {
    "lat": 766575.7099,
    "lon": 2288785.722,
    "island": "Maui",
    "name": "Four Seasons Resort Maui at Wailea",
    "address": "3900 Wailea Alanui Drive",
    "type": "HOTEL",
    "year_open": "1990"
  },
  {
    "lat": 815516.349,
    "lon": 2174345.306,
    "island": "Hawaii",
    "name": "Holiday Inn Express & Suites Kailua Kona",
    "address": "75-146 Sarona Road",
    "type": "HOTEL",
    "year_open": "2014"
  },
  {
    "lat": 820036.9252,
    "lon": 2172112.892,
    "island": "Hawaii",
    "name": "Holualoa Inn",
    "address": "76-5932 Mamalahoa Highway",
    "type": "BED & BREAKFAST",
    "year_open": "1987"
  },
  {
    "lat": 828456.4723,
    "lon": 2129610.446,
    "island": "Hawaii",
    "name": "Belle Vue Kona",
    "address": "Mamalahoa Highway",
    "type": "BED & BREAKFAST",
    "year_open": "2003"
  },
  {
    "lat": 778265.0043,
    "lon": 2297256.945,
    "island": "Maui",
    "name": "Upcountry Bed & Breakfast",
    "address": "4925 Lower Kula Road",
    "type": "BED & BREAKFAST",
    "year_open": "2001"
  },
  {
    "lat": 819059.2452,
    "lon": 2172503.043,
    "island": "Hawaii",
    "name": "Hale Maluhia Country Inn",
    "address": "76-770 Hualalai Road",
    "type": "BED & BREAKFAST",
    "year_open": "1992"
  },
  {
    "lat": 833818.8688,
    "lon": 2240773.248,
    "island": "Hawaii",
    "name": "Hawaii Island Retreat at Ahu Pohaku Hoomaluhia",
    "address": "250 Maluhia Road",
    "type": "HOTEL",
    "year_open": "2009"
  },
  {
    "lat": 910239.2665,
    "lon": 2185189.988,
    "island": "Hawaii",
    "name": "Hilo Bay Hale Bed and Breakfast",
    "address": "301 Ponahawai Street",
    "type": "BED & BREAKFAST",
    "year_open": "2009"
  },
  {
    "lat": 828099.7292,
    "lon": 2144088.068,
    "island": "Hawaii",
    "name": "Horizon Guest House",
    "address": "86-3992 Mamalahoa Highway",
    "type": "BED & BREAKFAST",
    "year_open": "1998"
  },
  {
    "lat": 716661.272,
    "lon": 2304160.799,
    "island": "Lanai",
    "name": "Hotel Lanai",
    "address": "828 Lanai Avenue",
    "type": "HOTEL",
    "year_open": "1923"
  },
  {
    "lat": 712788.5682,
    "lon": 2330986.851,
    "island": "Molokai",
    "name": "Ka Hale Mala B & B",
    "address": "35 Kamakana Place",
    "type": "BED & BREAKFAST",
    "year_open": "1995"
  },
  {
    "lat": 739939.6951,
    "lon": 2315474.036,
    "island": "Maui",
    "name": "Kaanapali Beach Hotel",
    "address": "2525 Kaanapali Parkway",
    "type": "HOTEL",
    "year_open": "1964"
  },
  {
    "lat": 780292.4826,
    "lon": 2299937.653,
    "island": "Maui",
    "name": "Kula Lodge",
    "address": "15200 Haleakala Highway",
    "type": "HOTEL",
    "year_open": "1949"
  },
  {
    "lat": 838349.5442,
    "lon": 2113918.552,
    "island": "Hawaii",
    "name": "Leilani Bed & Breakfast",
    "address": "92-8822 Leilani Parkway",
    "type": "BED & BREAKFAST",
    "year_open": "2005"
  },
  {
    "lat": 772917.6759,
    "lon": 2314279.538,
    "island": "Maui",
    "name": "Mangolani B&B",
    "address": "325 Baldwin Avenue",
    "type": "BED & BREAKFAST",
    "year_open": ""
  },
  {
    "lat": 629861.7565,
    "lon": 2368935.492,
    "island": "Oahu",
    "name": "Manu Mele Bed & Breakfast",
    "address": "153 Kailuana Place",
    "type": "BED & BREAKFAST",
    "year_open": "1988"
  },
  {
    "lat": 789436.0533,
    "lon": 2314204.872,
    "island": "Maui",
    "name": "Maui Eco Retreat",
    "address": "610 Huelo Road",
    "type": "BED & BREAKFAST",
    "year_open": ""
  },
  {
    "lat": 620885.6011,
    "lon": 2373550.586,
    "island": "Oahu",
    "name": "Paradise Bay Resort",
    "address": "47-039 Lihikai Drive",
    "type": "HOTEL",
    "year_open": "2010"
  },
  {
    "lat": 630943.8937,
    "lon": 2366778.357,
    "island": "Oahu",
    "name": "Sheffield House",
    "address": "131 Kuulei Road",
    "type": "BED & BREAKFAST",
    "year_open": "1987"
  },
  {
    "lat": 627192.0013,
    "lon": 2352709.165,
    "island": "Oahu",
    "name": "The Kahala Hotel & Resort",
    "address": "5000 Kahala Avenue",
    "type": "HOTEL",
    "year_open": "1963"
  },
  {
    "lat": 743877.3913,
    "lon": 2324015.571,
    "island": "Maui",
    "name": "The Ritz-Carlton Kapalua",
    "address": "1 Ritz Carlton Drive",
    "type": "HOTEL",
    "year_open": "1992"
  },
  {
    "lat": 621128.2208,
    "lon": 2353524.306,
    "island": "Oahu",
    "name": "Trump International Hotel Waikiki",
    "address": "223 Saratoga Road",
    "type": "HOTEL",
    "year_open": "2009"
  },
  {
    "lat": 895620.3029,
    "lon": 2152583.297,
    "island": "Hawaii",
    "name": "Volcano Village Lodge",
    "address": "19-4183 Road E",
    "type": "BED & BREAKFAST",
    "year_open": "2006"
  },
  {
    "lat": 430272.665,
    "lon": 2428498.145,
    "island": "Kauai",
    "name": "Waimea Plantation Cottages",
    "address": "9400 Kaumualii Highway",
    "type": "HOTEL",
    "year_open": "1984"
  },
  {
    "lat": 765937.7628,
    "lon": 2293050.786,
    "island": "Maui",
    "name": "Hale Pau Hana Resort",
    "address": "2480 South Kihei Road",
    "type": "CONDOMINIUM HOTEL",
    "year_open": "1969"
  },
  {
    "lat": 912678.5056,
    "lon": 2186180.203,
    "island": "Hawaii",
    "name": "Pagoda Hilo Bay",
    "address": "121 Banyan Drive",
    "type": "APARTMENT/ HOTEL",
    "year_open": "1973"
  },
  {
    "lat": 759658.3662,
    "lon": 2312190.814,
    "island": "Maui",
    "name": "Banana Bungalow / Maui Hostel",
    "address": "310 North Market Street",
    "type": "HOSTEL",
    "year_open": "1990"
  },
  {
    "lat": 915036.5818,
    "lon": 2186966.906,
    "island": "Hawaii",
    "name": "Arnott's Lodge And Hiking Adventures",
    "address": "98 Apapane Road",
    "type": "APARTMENT/ HOTEL",
    "year_open": "1990"
  },
  {
    "lat": 742636.8671,
    "lon": 2323377.966,
    "island": "Maui",
    "name": "Hale Napili",
    "address": "65 Hui Drive",
    "type": "CONDOMINIUM HOTEL",
    "year_open": "1960"
  },
  {
    "lat": 742695.4671,
    "lon": 2323355.981,
    "island": "Maui",
    "name": "Napili Village Hotel",
    "address": "5425 Lower Honoapiilani Road",
    "type": "CONDOMINIUM HOTEL",
    "year_open": "1965"
  },
  {
    "lat": 621000.0634,
    "lon": 2353658.977,
    "island": "Oahu",
    "name": "Hale Koa Hotel",
    "address": "2055 Kalia Road",
    "type": "HOTEL",
    "year_open": "1975"
  },
  {
    "lat": 741539.214,
    "lon": 2309749.44,
    "island": "Maui",
    "name": "Best Western Pioneer Inn",
    "address": "658 Wharf Street",
    "type": "HOTEL",
    "year_open": "1901"
  },
  {
    "lat": 772331.6971,
    "lon": 2315060.635,
    "island": "Maui",
    "name": "The Paia Inn",
    "address": "93 Hana Highway",
    "type": "HOTEL",
    "year_open": ""
  },
  {
    "lat": 741021.1372,
    "lon": 2320138.727,
    "island": "Maui",
    "name": "Noelani Condominium Resort (Estimate)",
    "address": "4095 Lower Honoapiilani Road",
    "type": "CONDOMINIUM HOTEL",
    "year_open": "1976"
  },
  {
    "lat": 817129.7883,
    "lon": 2170906.861,
    "island": "Hawaii",
    "name": "My Hawaii Hostel",
    "address": "76-6241 Ali'i Drive #5",
    "type": "HOSTEL",
    "year_open": ""
  },
  {
    "lat": 622058.522,
    "lon": 2353469.865,
    "island": "Oahu",
    "name": "Aqua Aloha Surf Waikiki",
    "address": "444 Kanekapolei Street",
    "type": "CONDOMINIUM HOTEL",
    "year_open": "1968"
  },
  {
    "lat": 621442.3761,
    "lon": 2353680.029,
    "island": "Oahu",
    "name": "Aqua Oasis",
    "address": "320 Lewers Street",
    "type": "HOTEL",
    "year_open": "1960"
  },
  {
    "lat": 620694.6472,
    "lon": 2354113.338,
    "island": "Oahu",
    "name": "Aqua Palms Waikiki",
    "address": "1850 Ala Moana Boulevard",
    "type": "CONDOMINIUM HOTEL",
    "year_open": "1968"
  },
  {
    "lat": 621791.5633,
    "lon": 2353726.264,
    "island": "Oahu",
    "name": "Aqua Skyline at Island Colony",
    "address": "445 Seaside Avenue",
    "type": "HOTEL",
    "year_open": "1978"
  },
  {
    "lat": 622282.2257,
    "lon": 2352799.578,
    "island": "Oahu",
    "name": "Ewa Hotel Waikiki",
    "address": "2555 Cartwright Road",
    "type": "HOTEL",
    "year_open": "1970"
  },
  {
    "lat": 598266.6774,
    "lon": 2359334.548,
    "island": "Oahu",
    "name": "Hampton Inn & Suites Oahu/Kapolei",
    "address": "91-5431 Kapolei Pkwy",
    "type": "HOTEL",
    "year_open": "2016"
  },
  {
    "lat": 620491.8234,
    "lon": 2354134.942,
    "island": "Oahu",
    "name": "Ilikai Hotel & Luxury Suites",
    "address": "1777 Ala Moana Boulevard",
    "type": "CONDOMINIUM HOTEL",
    "year_open": "1964"
  },
  {
    "lat": 621134.7869,
    "lon": 2353982.618,
    "island": "Oahu",
    "name": "Luana Waikiki Hotel & Suites",
    "address": "2045 Kalakaua Avenue",
    "type": "CONDOMINIUM HOTEL",
    "year_open": "1970"
  },
  {
    "lat": 620338.8775,
    "lon": 2355302.522,
    "island": "Oahu",
    "name": "Pagoda Hotel",
    "address": "1525 Rycroft Street",
    "type": "HOTEL",
    "year_open": "1964"
  },
  {
    "lat": 618118.7365,
    "lon": 2356823.91,
    "island": "Oahu",
    "name": "Aston at the Executive Centre Hotel",
    "address": "1088 Bishop Street",
    "type": "CONDOMINIUM HOTEL",
    "year_open": "1992"
  },
  {
    "lat": 621936.102,
    "lon": 2353042.217,
    "island": "Oahu",
    "name": "Espacio The Jewel of Waikiki",
    "address": "2452 Kalakaua Avenue",
    "type": "HOTEL",
    "year_open": "2019"
  },
  {
    "lat": 742648.3196,
    "lon": 2323661.541,
    "island": "Maui",
    "name": "Napili Kai Beach Resort",
    "address": "5900 Lower Honoapiilani Road",
    "type": "CONDOMINIUM HOTEL",
    "year_open": "1962"
  },
  {
    "lat": 766759.5201,
    "lon": 2290888.551,
    "island": "Maui",
    "name": "Palms at Wailea",
    "address": "3200 Wailea Alanui Drive",
    "type": "CONDOMINIUM HOTEL",
    "year_open": "1991"
  },
  {
    "lat": 740882.536,
    "lon": 2319665.914,
    "island": "Maui",
    "name": "Kuleana Resort",
    "address": "3959 Lower Honoapiilani Road",
    "type": "CONDOMINIUM HOTEL",
    "year_open": "1973"
  },
  {
    "lat": 766598.4266,
    "lon": 2289949.954,
    "island": "Maui",
    "name": "Wailea Elua",
    "address": "3600 Wailea Alanui Drive",
    "type": "CONDOMINIUM HOTEL",
    "year_open": "1978"
  },
  {
    "lat": 451490.7345,
    "lon": 2419641.623,
    "island": "Kauai",
    "name": "Whaler's Cove at Poipu",
    "address": "2640 Puuholo Road",
    "type": "CONDOMINIUM HOTEL",
    "year_open": "1993"
  },
  {
    "lat": 767710.1659,
    "lon": 2291220.945,
    "island": "Maui",
    "name": "Hale Manu Mele",
    "address": "3230 Kehala Dr 5k",
    "type": "BED & BREAKFAST",
    "year_open": ""
  },
  {
    "lat": 813081.9068,
    "lon": 2292835.471,
    "island": "Maui",
    "name": "Hana Aloha Hale",
    "address": "6820 Hana Hy",
    "type": "BED & BREAKFAST",
    "year_open": "1997"
  },
  {
    "lat": 463506.6921,
    "lon": 2428896.14,
    "island": "Kauai",
    "name": "Kauai Marriott Resort",
    "address": "3610 Rice Street",
    "type": "HOTEL",
    "year_open": "1987"
  },
  {
    "lat": 826271.2745,
    "lon": 2205299.635,
    "island": "Hawaii",
    "name": "Waikoloa Beach Marriott Resort & Spa",
    "address": "69-275 Waikoloa Beach Drive",
    "type": "HOTEL",
    "year_open": "1981"
  },
  {
    "lat": 837302.3659,
    "lon": 2115049.495,
    "island": "Hawaii",
    "name": "A Beautiful Edge of the World B&B",
    "address": "PO Box 888",
    "type": "BED & BREAKFAST",
    "year_open": "1999"
  },
  {
    "lat": 765219.7077,
    "lon": 2298423.584,
    "island": "Maui",
    "name": "A Piece Of Paradise",
    "address": "201 Hoopili Akau St",
    "type": "BED & BREAKFAST",
    "year_open": "2015"
  },
  {
    "lat": 779524.2982,
    "lon": 2313887.834,
    "island": "Maui",
    "name": "Aloha Hookipa Bayview Cottage",
    "address": "1250 Kauhikoa Road",
    "type": "BED & BREAKFAST",
    "year_open": "2001"
  },
  {
    "lat": 767996.5959,
    "lon": 2290246.099,
    "island": "Maui",
    "name": "Auntie Kali's Cottage",
    "address": "530 Kumulani Dr 5k",
    "type": "BED & BREAKFAST",
    "year_open": "2013"
  },
  {
    "lat": 631422.0822,
    "lon": 2366162.426,
    "island": "Oahu",
    "name": "Finn's Bed & Breakfast",
    "address": "226 Pouli Road",
    "type": "BED & BREAKFAST",
    "year_open": "1985"
  },
  {
    "lat": 761802.4601,
    "lon": 2313250.542,
    "island": "Maui",
    "name": "Hale Anuhea Kai",
    "address": "679 Pio Dr 4O",
    "type": "BED & BREAKFAST",
    "year_open": "2019"
  },
  {
    "lat": 778994.8153,
    "lon": 2298949.99,
    "island": "Maui",
    "name": "Halekalani",
    "address": "505 Kamehameiki Road",
    "type": "BED & BREAKFAST",
    "year_open": "2015"
  },
  {
    "lat": 779109.062,
    "lon": 2301122.515,
    "island": "Maui",
    "name": "Hale Kiana",
    "address": "116 Mano Dr",
    "type": "BED & BREAKFAST",
    "year_open": "2016"
  },
  {
    "lat": 765157.0876,
    "lon": 2297847.21,
    "island": "Maui",
    "name": "Hibiscus Hideaway",
    "address": "11 Waikalani Hema Pl",
    "type": "BED & BREAKFAST",
    "year_open": ""
  },
  {
    "lat": 829200.3897,
    "lon": 2223211.482,
    "island": "Hawaii",
    "name": "Makai Hale Bed & Breakfast",
    "address": "59-411 Pupu Place",
    "type": "BED & BREAKFAST",
    "year_open": "1991"
  },
  {
    "lat": 765759.1111,
    "lon": 2294281.266,
    "island": "Maui",
    "name": "Maui Garden Cottage",
    "address": "117 Auhana Road",
    "type": "BED & BREAKFAST",
    "year_open": "2010"
  },
  {
    "lat": 782487.5688,
    "lon": 2315289.069,
    "island": "Maui",
    "name": "Maui Tradewinds",
    "address": "4320 Une Place",
    "type": "BED & BREAKFAST",
    "year_open": "1998"
  },
  {
    "lat": 780819.181,
    "lon": 2315803.232,
    "island": "Maui",
    "name": "Peahi Point B&B",
    "address": "300 Hahana Rd 7g",
    "type": "BED & BREAKFAST",
    "year_open": ""
  },
  {
    "lat": 740991.6592,
    "lon": 2312592.736,
    "island": "Maui",
    "name": "The Guest House",
    "address": "1620 Ainakea Road",
    "type": "BED & BREAKFAST",
    "year_open": "1985"
  },
  {
    "lat": 782400.5385,
    "lon": 2315868.188,
    "island": "Maui",
    "name": "Tranquil Palms B&B",
    "address": "4356 Opana Pl",
    "type": "BED & BREAKFAST",
    "year_open": ""
  },
  {
    "lat": 767514.3005,
    "lon": 2291207.955,
    "island": "Maui",
    "name": "Victorian Villa",
    "address": "452 Kupulau Dr",
    "type": "BED & BREAKFAST",
    "year_open": "2016"
  },
  {
    "lat": 767738.744,
    "lon": 2290406.181,
    "island": "Maui",
    "name": "Rainbow Deluxe",
    "address": "460 Hoala Dr",
    "type": "BED & BREAKFAST",
    "year_open": "2011"
  },
  {
    "lat": 825993.5146,
    "lon": 2206148.34,
    "island": "Hawaii",
    "name": "Hilton Waikoloa Village",
    "address": "69-425 Waikoloa Beach Drive",
    "type": "HOTEL",
    "year_open": "1988"
  },
  {
    "lat": 621326.6142,
    "lon": 2353393.667,
    "island": "Oahu",
    "name": "Waikiki Parc Hotel",
    "address": "2233 Helumoa Road",
    "type": "HOTEL",
    "year_open": "1987"
  },
  {
    "lat": 620331.9853,
    "lon": 2354198.635,
    "island": "Oahu",
    "name": "Prince Waikiki",
    "address": "100 Holomoana Street",
    "type": "HOTEL",
    "year_open": "1990"
  },
  {
    "lat": 832519.0443,
    "lon": 2214100.47,
    "island": "Hawaii",
    "name": "The Westin Hapuna Beach Resort",
    "address": "62-100 Kaunaoa Beach Drive",
    "type": "HOTEL",
    "year_open": "1994"
  },
  {
    "lat": 832237.1432,
    "lon": 2215507.546,
    "island": "Hawaii",
    "name": "Mauna Kea Beach Hotel, Autograph Collection",
    "address": "62-100 Mauna Kea Beach Drive",
    "type": "HOTEL",
    "year_open": "1965"
  },
  {
    "lat": 621107.8185,
    "lon": 2353481.452,
    "island": "Oahu",
    "name": "Waikiki Shore by Outrigger",
    "address": "2161 Kalia Road",
    "type": "CONDOMINIUM HOTEL",
    "year_open": "1960"
  },
  {
    "lat": 740166.0958,
    "lon": 2315717.854,
    "island": "Maui",
    "name": "Maui Eldorado Kaanapali by Outrigger",
    "address": "2661 Kekaa Drive",
    "type": "CONDOMINIUM HOTEL",
    "year_open": "1969"
  },
  {
    "lat": 741809.2064,
    "lon": 2309925.594,
    "island": "Maui",
    "name": "Aina Nalu Lahaina By Outrigger",
    "address": "660 Wainee Street",
    "type": "CONDOMINIUM HOTEL",
    "year_open": "1975"
  },
  {
    "lat": 818441.3939,
    "lon": 2166200.072,
    "island": "Hawaii",
    "name": "Kanaloa at Kona by Outrigger",
    "address": "78-261 Manukai Street",
    "type": "CONDOMINIUM HOTEL",
    "year_open": "1980"
  },
  {
    "lat": 452529.4232,
    "lon": 2419453.675,
    "island": "Kauai",
    "name": "Kiahuna Plantation Resort Kauai by Outrigger",
    "address": "2253 Poipu Road",
    "type": "CONDOMINIUM HOTEL",
    "year_open": "1972"
  },
  {
    "lat": 742545.2343,
    "lon": 2323075.054,
    "island": "Maui",
    "name": "Napili Shores Maui by Outrigger",
    "address": "5315 Lower Honoapiilani Road",
    "type": "CONDOMINIUM HOTEL",
    "year_open": "1972"
  },
  {
    "lat": 621270.5632,
    "lon": 2353594.856,
    "island": "Oahu",
    "name": "Regency on Beachwalk Waikiki By Outrigger",
    "address": "255 Beach Walk",
    "type": "CONDOMINIUM HOTEL",
    "year_open": "1961"
  },
  {
    "lat": 743620.1221,
    "lon": 2324266.284,
    "island": "Maui",
    "name": "The Kapalua Villas Maui",
    "address": "500 Office Road",
    "type": "CONDOMINIUM HOTEL",
    "year_open": "1975"
  },
  {
    "lat": 741343.4212,
    "lon": 2320815.968,
    "island": "Maui",
    "name": "Royal Kahana Maui by Outrigger",
    "address": "4365 Lower Honoapiilani Road",
    "type": "CONDOMINIUM HOTEL",
    "year_open": "1975"
  },
  {
    "lat": 826546.1605,
    "lon": 2205465.69,
    "island": "Hawaii",
    "name": "Fairway Villas Waikoloa by Outrigger",
    "address": "69-200 Pohakulana Place",
    "type": "CONDOMINIUM HOTEL",
    "year_open": "2004"
  },
  {
    "lat": 826387.0969,
    "lon": 2205192.414,
    "island": "Hawaii",
    "name": "Kohala Coast Vacation Rentals by Outrigger",
    "address": "69-250 Waikoloa Beach Dr Ste B13",
    "type": "CONDOMINIUM HOTEL",
    "year_open": ""
  },
  {
    "lat": 766759.5201,
    "lon": 2290888.551,
    "island": "Maui",
    "name": "Palms at Wailea Maui by Outrigger",
    "address": "3200 Wailea Alanui Drive",
    "type": "CONDOMINIUM HOTEL",
    "year_open": "1991"
  },
  {
    "lat": 466894.866,
    "lon": 2439652.465,
    "island": "Kauai",
    "name": "Waipouli Beach Resort & Spa Kauai by Outrigger",
    "address": "4-820 Kuhio Highway",
    "type": "CONDOMINIUM HOTEL",
    "year_open": "2006"
  },
  {
    "lat": 465865.4965,
    "lon": 2438705.895,
    "island": "Kauai",
    "name": "Lae Nani Resort Kauai by Outrigger",
    "address": "410 Papaloa Road",
    "type": "CONDOMINIUM HOTEL",
    "year_open": "1977"
  },
  {
    "lat": 740187.7257,
    "lon": 2317924.877,
    "island": "Maui",
    "name": "Honua Kai Resort & Spa",
    "address": "130 Kai Malina Pkwy",
    "type": "CONDOMINIUM HOTEL",
    "year_open": "2009"
  },
  {
    "lat": 612678.8052,
    "lon": 2359792.318,
    "island": "Oahu",
    "name": "Best Western The Plaza Hotel",
    "address": "3253 North Nimitz Highway",
    "type": "HOTEL",
    "year_open": "1963"
  },
  {
    "lat": 621174.42,
    "lon": 2353484.072,
    "island": "Oahu",
    "name": "Embassy Suites by Hiltonâ„¢ - Waikiki Beach Walk",
    "address": "201 Beach Walk",
    "type": "HOTEL",
    "year_open": "2006"
  },
  {
    "lat": 621646.6555,
    "lon": 2353395.608,
    "island": "Oahu",
    "name": "Waikiki Beachcomber by Outrigger",
    "address": "2300 Kalakaua Avenue",
    "type": "HOTEL",
    "year_open": "1970"
  },
  {
    "lat": 612282.3645,
    "lon": 2359854.006,
    "island": "Oahu",
    "name": "Airport Honolulu Hotel",
    "address": "3401 North Nimitz Highway",
    "type": "HOTEL",
    "year_open": "1965"
  },
  {
    "lat": 621914.3548,
    "lon": 2353319.44,
    "island": "Oahu",
    "name": "OHANA Waikiki East by Outrigger",
    "address": "150 Kaiulani Avenue",
    "type": "HOTEL",
    "year_open": "1972"
  },
  {
    "lat": 621565.102,
    "lon": 2353713.961,
    "island": "Oahu",
    "name": "OHANA Waikiki Malia by Outrigger",
    "address": "2211 Kuhio Avenue",
    "type": "HOTEL",
    "year_open": "1984"
  },
  {
    "lat": 621137.096,
    "lon": 2353454.24,
    "island": "Oahu",
    "name": "Outrigger Reef Waikiki Beach Resort",
    "address": "2169 Kalia Road",
    "type": "HOTEL",
    "year_open": "1955"
  },
  {
    "lat": 621669.6816,
    "lon": 2353312.796,
    "island": "Oahu",
    "name": "Outrigger Waikiki Beach Resort",
    "address": "2335 Kalakaua Avenue",
    "type": "HOTEL",
    "year_open": "1967"
  },
  {
    "lat": 816312.9892,
    "lon": 2172176.208,
    "island": "Hawaii",
    "name": "Royal Sea Cliff Kona by Outrigger",
    "address": "75-6040 Alii Drive",
    "type": "CONDOMINIUM HOTEL",
    "year_open": "1982"
  },
  {
    "lat": 909915.1611,
    "lon": 2186265.882,
    "island": "Hawaii",
    "name": "Dolphin Bay Hotel",
    "address": "333 Iliahi Street",
    "type": "HOTEL",
    "year_open": "1968"
  },
  {
    "lat": 896246.5999,
    "lon": 2152723.006,
    "island": "Hawaii",
    "name": "Aloha Crater Lodge",
    "address": "11-3966 Lanihuli Road",
    "type": "BED & BREAKFAST",
    "year_open": "2007"
  },
  {
    "lat": 622353.6542,
    "lon": 2351763.88,
    "island": "Oahu",
    "name": "The New Otani at Kaimana Beach Hotel",
    "address": "2863 Kalakaua Avenue",
    "type": "HOTEL",
    "year_open": "1964"
  },
  {
    "lat": 621846.5114,
    "lon": 2353644.981,
    "island": "Oahu",
    "name": "Ilima Hotel",
    "address": "445 Nohonani Street",
    "type": "HOTEL",
    "year_open": "1968"
  },
  {
    "lat": 467499.5762,
    "lon": 2441579.808,
    "island": "Kauai",
    "name": "Hotel Coral Reef",
    "address": "4-1516 Kuhio Highway",
    "type": "HOTEL",
    "year_open": "1955"
  },
  {
    "lat": 590759.1796,
    "lon": 2360074.814,
    "island": "Oahu",
    "name": "Four Seasons Resort Oahu at Ko Olina",
    "address": "92-1001 Olani Street",
    "type": "HOTEL",
    "year_open": "1993"
  },
  {
    "lat": 775259.4658,
    "lon": 2305910.787,
    "island": "Maui",
    "name": "Hale Aku",
    "address": "2704 Ililani Way",
    "type": "BED & BREAKFAST",
    "year_open": ""
  },
  {
    "lat": 909415.835,
    "lon": 2185054.337,
    "island": "Hawaii",
    "name": "Hilo Honu Inn LLC",
    "address": "465 Haili Street",
    "type": "BED & BREAKFAST",
    "year_open": "2006"
  },
  {
    "lat": 905048.7127,
    "lon": 2185622.032,
    "island": "Hawaii",
    "name": "Inn at Kulaniapia Falls",
    "address": "100 Kulaniapia Drive",
    "type": "BED & BREAKFAST",
    "year_open": "1998"
  },
  {
    "lat": 828287.6624,
    "lon": 2150728.833,
    "island": "Hawaii",
    "name": "Kane Plantation Guesthouse",
    "address": "84-1120 Telephone Exchange Road",
    "type": "BED & BREAKFAST",
    "year_open": "2013"
  },
  {
    "lat": 895883.3263,
    "lon": 2152785.3,
    "island": "Hawaii",
    "name": "Kilauea Lodge & Restaurant",
    "address": "19-3948 Old Volcano Road",
    "type": "HOTEL",
    "year_open": "1988"
  },
  {
    "lat": 773890.5668,
    "lon": 2316588.817,
    "island": "Maui",
    "name": "Mama's Fish House Restaurant And Inn",
    "address": "799 Poho Place",
    "type": "HOTEL",
    "year_open": "1973"
  },
  {
    "lat": 451600.3363,
    "lon": 2419778.493,
    "island": "Kauai",
    "name": "Poipu Bed & Breakfast Inn",
    "address": "2720 Hoonani Road",
    "type": "BED & BREAKFAST",
    "year_open": "1988"
  },
  {
    "lat": 603573.603,
    "lon": 2400527.182,
    "island": "Oahu",
    "name": "Turtle Bay Resort",
    "address": "57-091 Kamehameha Highway",
    "type": "HOTEL",
    "year_open": "1972"
  },
  {
    "lat": 825731.4293,
    "lon": 2154943.884,
    "island": "Hawaii",
    "name": "Kona Bayview Inn",
    "address": "83-5605 Middle Keei Road",
    "type": "BED & BREAKFAST",
    "year_open": "1999"
  },
  {
    "lat": 768267.8558,
    "lon": 2290238.434,
    "island": "Maui",
    "name": "Maui Joy Villa",
    "address": "620 Kumulani Dr",
    "type": "BED & BREAKFAST",
    "year_open": ""
  },
  {
    "lat": 895350.6614,
    "lon": 2152996.42,
    "island": "Hawaii",
    "name": "Hale Kilauea",
    "address": "19-3996 Kilauea Road",
    "type": "BED & BREAKFAST",
    "year_open": "1988"
  },
  {
    "lat": 780654.1713,
    "lon": 2313113.783,
    "island": "Maui",
    "name": "Bamboo Valley Inn",
    "address": "1444 West Kuiaha Road",
    "type": "BED & BREAKFAST",
    "year_open": ""
  },
  {
    "lat": 741056.8645,
    "lon": 2312766.731,
    "island": "Maui",
    "name": "Maui Garden Oasis",
    "address": "67 Kaniau Road",
    "type": "BED & BREAKFAST",
    "year_open": "1992"
  },
  {
    "lat": 773547.7444,
    "lon": 2316003.76,
    "island": "Maui",
    "name": "Kuau Ko",
    "address": "616 Hana Hwy",
    "type": "BED & BREAKFAST",
    "year_open": "2019"
  },
  {
    "lat": 766780.7528,
    "lon": 2291676.536,
    "island": "Maui",
    "name": "Relax and Rewind",
    "address": "221 Mahie Pl 5g",
    "type": "BED & BREAKFAST",
    "year_open": "2019"
  },
  {
    "lat": 780028.6196,
    "lon": 2299565.996,
    "island": "Maui",
    "name": "Kula Treat",
    "address": "226 Kulalani Dr",
    "type": "BED & BREAKFAST",
    "year_open": "2014"
  },
  {
    "lat": 778419.6682,
    "lon": 2314669.428,
    "island": "Maui",
    "name": "Haiku Guesthouse",
    "address": "905 Kokomo Road",
    "type": "BED & BREAKFAST",
    "year_open": "2013"
  },
  {
    "lat": 778640.4913,
    "lon": 2314291.048,
    "island": "Maui",
    "name": "Maile Bungalow",
    "address": "2582 Alohia Place",
    "type": "BED & BREAKFAST",
    "year_open": "2009"
  },
  {
    "lat": 778468.7923,
    "lon": 2315815.901,
    "island": "Maui",
    "name": "Hookipa Rose",
    "address": "285 Pauwela Road",
    "type": "BED & BREAKFAST",
    "year_open": ""
  },
  {
    "lat": 789436.0533,
    "lon": 2314204.872,
    "island": "Maui",
    "name": "Kahua O Mali'o",
    "address": "610 Huelo Rd",
    "type": "BED & BREAKFAST",
    "year_open": "2003"
  },
  {
    "lat": 779918.8188,
    "lon": 2307865.706,
    "island": "Maui",
    "name": "La Casita",
    "address": "1094 Pookela Rd",
    "type": "BED & BREAKFAST",
    "year_open": ""
  },
  {
    "lat": 765014.6893,
    "lon": 2294888.957,
    "island": "Maui",
    "name": "Hale Hai Hai",
    "address": "71 Waimahaihai St",
    "type": "BED & BREAKFAST",
    "year_open": "2019"
  },
  {
    "lat": 766637.6717,
    "lon": 2293001.718,
    "island": "Maui",
    "name": "Scott's B&B",
    "address": "92 Iliwai Loop",
    "type": "BED & BREAKFAST",
    "year_open": ""
  },
  {
    "lat": 766679.8403,
    "lon": 2292121.021,
    "island": "Maui",
    "name": "Kauhale Breeze",
    "address": "2812 Kauhale St 5g",
    "type": "BED & BREAKFAST",
    "year_open": ""
  },
  {
    "lat": 767858.4778,
    "lon": 2290253.944,
    "island": "Maui",
    "name": "Maui Meadows Retreat",
    "address": "485 Kumulani Dr 5k",
    "type": "BED & BREAKFAST",
    "year_open": "2016"
  },
  {
    "lat": 745592.0152,
    "lon": 2307286.435,
    "island": "Maui",
    "name": "Hooilo House",
    "address": "138 Awaiku Street",
    "type": "BED & BREAKFAST",
    "year_open": "2003"
  },
  {
    "lat": 906508.3999,
    "lon": 2184767.148,
    "island": "Hawaii",
    "name": "Old Hawaiian Bed & Breakfast",
    "address": "1492 Wailuku Drive",
    "type": "BED & BREAKFAST",
    "year_open": "2001"
  },
  {
    "lat": 465931.0016,
    "lon": 2438755.008,
    "island": "Kauai",
    "name": "Kauai Shores Hotel",
    "address": "420 Papaloa Road",
    "type": "CONDOMINIUM HOTEL",
    "year_open": "1970"
  },
  {
    "lat": 870320.9773,
    "lon": 2223352.612,
    "island": "Hawaii",
    "name": "Waipio Wayside Bed & Breakfast Inn",
    "address": "P.O. Box 840",
    "type": "BED & BREAKFAST",
    "year_open": "1988"
  },
  {
    "lat": 609387.1279,
    "lon": 2364710.426,
    "island": "Oahu",
    "name": "Harbor Shores Apartment Hotel",
    "address": "98-145 Lipoa Place",
    "type": "CONDOMINIUM HOTEL",
    "year_open": "1965"
  },
  {
    "lat": 740694.0905,
    "lon": 2319110.02,
    "island": "Maui",
    "name": "Kulakane Condominiums",
    "address": "3741 Lower Honoapiilani Road",
    "type": "CONDOMINIUM HOTEL",
    "year_open": "1970"
  },
  {
    "lat": 916686.4337,
    "lon": 2186754.457,
    "island": "Hawaii",
    "name": "Maureen's Bed & Breakfast",
    "address": "1896 Kalanianaole Street",
    "type": "BED & BREAKFAST",
    "year_open": "1990"
  },
  {
    "lat": 766084.2269,
    "lon": 2292406.438,
    "island": "Maui",
    "name": "Kamaole Sands (Estimate)",
    "address": "2695 South Kihei Road",
    "type": "CONDOMINIUM HOTEL",
    "year_open": "1983"
  },
  {
    "lat": 622055.0924,
    "lon": 2353223.972,
    "island": "Oahu",
    "name": "Vive Hotel Waikiki (Estimate)",
    "address": "2426 Kuhio Avenue",
    "type": "HOTEL",
    "year_open": "1979"
  },
  {
    "lat": 622055.0924,
    "lon": 2353223.972,
    "island": "Oahu",
    "name": "Vive Hotel Waikiki (Estimate)",
    "address": "2426 Kuhio Avenue",
    "type": "HOTEL",
    "year_open": "1979"
  },
  {
    "lat": 628145.5837,
    "lon": 2372699.152,
    "island": "Oahu",
    "name": "The Lodge at Kaneohe Bay (Estimate)",
    "address": "MCB Hawaii Building 6534",
    "type": "HOTEL",
    "year_open": ""
  },
  {
    "lat": 615242.3392,
    "lon": 2362486.4,
    "island": "Oahu",
    "name": "Tripler Army Hotel",
    "address": "Tripler Army Medical Center Bldg 228B",
    "type": "HOTEL",
    "year_open": ""
  },
  {
    "lat": 620647.5647,
    "lon": 2354144.405,
    "island": "Oahu",
    "name": "Ramada Plaza Waikiki (Estimate)",
    "address": "1830 Ala Moana Boulevard",
    "type": "HOTEL",
    "year_open": "1969"
  },
  {
    "lat": 620647.5647,
    "lon": 2354144.405,
    "island": "Oahu",
    "name": "Ramada Plaza Waikiki (Estimate)",
    "address": "1830 Ala Moana Boulevard",
    "type": "HOTEL",
    "year_open": "1969"
  },
  {
    "lat": 598301.8263,
    "lon": 2376790.14,
    "island": "Oahu",
    "name": "Inn at Schofield Barracks",
    "address": "563 Kolekole Avenue",
    "type": "HOTEL",
    "year_open": "1994"
  },
  {
    "lat": 608381.7707,
    "lon": 2360173.537,
    "island": "Oahu",
    "name": "Royal Alakai Inn (Estimate)",
    "address": "15 G Street Building 1153",
    "type": "HOTEL",
    "year_open": ""
  },
  {
    "lat": 621599.5771,
    "lon": 2353573.596,
    "island": "Oahu",
    "name": "Shoreline Hotel Waikiki, a Joie de Vivre Hotel",
    "address": "342 Seaside Avenue",
    "type": "HOTEL",
    "year_open": ""
  },
  {
    "lat": 766115.8709,
    "lon": 2291520.101,
    "island": "Maui",
    "name": "Days Inn Maui Oceanfront Kihei (Estimate)",
    "address": "2980 South Kihei Road",
    "type": "HOTEL",
    "year_open": "1972"
  },
  {
    "lat": 621639.2864,
    "lon": 2353865.046,
    "island": "Oahu",
    "name": "Coconut Waikiki Hotel, a Joie de Vivre Hotel",
    "address": "450 Lewers Street",
    "type": "HOTEL",
    "year_open": "1963"
  },
  {
    "lat": 621639.2864,
    "lon": 2353865.046,
    "island": "Oahu",
    "name": "Coconut Waikiki Hotel, a Joie de Vivre Hotel",
    "address": "450 Lewers Street",
    "type": "HOTEL",
    "year_open": "1963"
  },
  {
    "lat": 620595.1438,
    "lon": 2353845.13,
    "island": "Oahu",
    "name": "Hilton Hawaiian Village Beach Resort & Spa (Estimate)",
    "address": "2005 Kalia Road",
    "type": "HOTEL",
    "year_open": "2001"
  },
  {
    "lat": 740510.5726,
    "lon": 2318544.599,
    "island": "Maui",
    "name": "Papakea Resort (Estimate)",
    "address": "3543 Lower Honoapiilani Road",
    "type": "CONDOMINIUM HOTEL",
    "year_open": "1976"
  },
  {
    "lat": 619954.7718,
    "lon": 2355898.583,
    "island": "Oahu",
    "name": "The Plumeria",
    "address": "1111 Piikoi Street",
    "type": "HOSTEL",
    "year_open": "1985"
  },
  {
    "lat": 620394.535,
    "lon": 2354291.175,
    "island": "Oahu",
    "name": "The Equus, an Ascend Hotel",
    "address": "1696 Ala Moana Boulevard",
    "type": "CONDOMINIUM HOTEL",
    "year_open": "1963"
  },
  {
    "lat": 621306.7845,
    "lon": 2353758.073,
    "island": "Oahu",
    "name": "The Polynesian Residences (Estimate)",
    "address": "2131 Kalakaua Avenue",
    "type": "HOTEL",
    "year_open": "1972"
  },
  {
    "lat": 910000.8281,
    "lon": 2186247.712,
    "island": "Hawaii",
    "name": "Wild Ginger Inn Hotel And Hostel (Estimate)",
    "address": "100 Puueo Street",
    "type": "HOTEL",
    "year_open": "1939"
  },
  {
    "lat": 609295.0041,
    "lon": 2364761.88,
    "island": "Oahu",
    "name": "Harbor Arms Apartment Hotel (Estimate)",
    "address": "98-130 Lipoa Place",
    "type": "APARTMENT/ HOTEL",
    "year_open": "1965"
  },
  {
    "lat": 856290.9052,
    "lon": 2111000.413,
    "island": "Hawaii",
    "name": "Macadamia Meadows Farm B & B (Estimate)",
    "address": "94-6263 Kamaoa Road",
    "type": "BED & BREAKFAST",
    "year_open": "1997"
  },
  {
    "lat": 847748.4883,
    "lon": 2217440.281,
    "island": "Hawaii",
    "name": "Kamuela Inn (Estimate)",
    "address": "65-1300 Kawaihae Road",
    "type": "BED & BREAKFAST",
    "year_open": "1960"
  },
  {
    "lat": 716600.6769,
    "lon": 2305347.266,
    "island": "Lanai",
    "name": "Sensei Lanai, A Four Seasons Resort (Estimate)",
    "address": "1 Keomoku Highway",
    "type": "HOTEL",
    "year_open": "1991"
  },
  {
    "lat": 768571.7557,
    "lon": 2290596.917,
    "island": "Maui",
    "name": "Eva Villa (Estimate)",
    "address": "815 Kumulani Drive",
    "type": "BED & BREAKFAST",
    "year_open": "1993"
  },
  {
    "lat": 777609.992,
    "lon": 2310095.455,
    "island": "Maui",
    "name": "Gods Peace Of Maui (Estimate)",
    "address": "1290 Haliimaile Road",
    "type": "BED & BREAKFAST",
    "year_open": "1995"
  },
  {
    "lat": 633389.2993,
    "lon": 2365270.653,
    "island": "Oahu",
    "name": "Hawaii's Hidden Hideaway Bed and Breakfast (Estimate)",
    "address": "1369 Mokolea Drive",
    "type": "BED & BREAKFAST",
    "year_open": "1997"
  },
  {
    "lat": 611743.9715,
    "lon": 2366260.446,
    "island": "Oahu",
    "name": "Rainbow Inn (Estimate)",
    "address": "98-1049 Mahola Place",
    "type": "BED & BREAKFAST",
    "year_open": "NA"
  },
  {
    "lat": 831166.4331,
    "lon": 2240878.742,
    "island": "Hawaii",
    "name": "Kohala Village Inn (Estimate)",
    "address": "55-514 Hawi Road",
    "type": "HOTEL",
    "year_open": "1994"
  },
  {
    "lat": 740077.952,
    "lon": 2316316.454,
    "island": "Maui",
    "name": "Kaanapali Ocean Inn (Estimate)",
    "address": "2780-A Kekaa Drive",
    "type": "HOTEL",
    "year_open": "1962"
  },
  {
    "lat": 815809.9648,
    "lon": 2173541.678,
    "island": "Hawaii",
    "name": "Royal Kona Resort (Estimate)",
    "address": "75-5852 Alii Drive",
    "type": "HOTEL",
    "year_open": "1967"
  },
  {
    "lat": 740077.952,
    "lon": 2316316.454,
    "island": "Maui",
    "name": "Royal Lahaina Resort",
    "address": "2780 Kekaa Drive",
    "type": "HOTEL",
    "year_open": "1962"
  },
  {
    "lat": 739763.5818,
    "lon": 2314787.189,
    "island": "Maui",
    "name": "Kaanapali Alii Resort (Estimate)",
    "address": "50 Nohea Kai Drive",
    "type": "CONDOMINIUM HOTEL",
    "year_open": "1982"
  },
  {
    "lat": 772705.7304,
    "lon": 2314667.508,
    "island": "Maui",
    "name": "Hale Nihi B&B",
    "address": "5 Nihi Place 7A",
    "type": "BED & BREAKFAST",
    "year_open": ""
  },
  {
    "lat": 813712.5352,
    "lon": 2297838.014,
    "island": "Maui",
    "name": "Hana-Maui- Resort",
    "address": "5031 Hana Highway",
    "type": "HOTEL",
    "year_open": "1996"
  },
  {
    "lat": 813712.5352,
    "lon": 2297838.014,
    "island": "Maui",
    "name": "Hana-Maui- Resort",
    "address": "5031 Hana Highway",
    "type": "HOTEL",
    "year_open": "1996"
  },
  {
    "lat": 742496.7373,
    "lon": 2323215.282,
    "island": "Maui",
    "name": "Napili Surf Beach Resort",
    "address": "50 Napili Place",
    "type": "CONDOMINIUM HOTEL",
    "year_open": "1970"
  },
  {
    "lat": 742610.8956,
    "lon": 2323313.915,
    "island": "Maui",
    "name": "Napili Sunset (Estimate)",
    "address": "46 Hui Drive",
    "type": "CONDOMINIUM HOTEL",
    "year_open": "1975"
  },
  {
    "lat": 741491.1258,
    "lon": 2321297.435,
    "island": "Maui",
    "name": "Kahana Village (Estimate)",
    "address": "4531 Lower Honoapiilani Road",
    "type": "CONDOMINIUM HOTEL",
    "year_open": "1979"
  },
  {
    "lat": 818441.3939,
    "lon": 2166200.072,
    "island": "Hawaii",
    "name": "Kanaloa at Kona",
    "address": "78-261 Manukai Street",
    "type": "CONDOMINIUM HOTEL",
    "year_open": "1980"
  },
  {
    "lat": 741418.4012,
    "lon": 2310110.592,
    "island": "Maui",
    "name": "Lahaina Inn",
    "address": "127 Lahainaluna Road",
    "type": "HOTEL",
    "year_open": "1931"
  },
  {
    "lat": 621269.6099,
    "lon": 2353602.645,
    "island": "Oahu",
    "name": "Pagoda Waikiki Hotel",
    "address": "260 Beach Walk",
    "type": "HOTEL",
    "year_open": "1955"
  },
  {
    "lat": 764783.4752,
    "lon": 2296338.653,
    "island": "Maui",
    "name": "Hale Kai O Kihei",
    "address": "1310 Uluniu Road",
    "type": "CONDOMINIUM HOTEL",
    "year_open": "1969"
  },
  {
    "lat": 766123.2928,
    "lon": 2292223.658,
    "island": "Maui",
    "name": "Hale Kamaole",
    "address": "2737 South Kihei Road",
    "type": "CONDOMINIUM HOTEL",
    "year_open": "1973"
  },
  {
    "lat": 765985.1146,
    "lon": 2292867.33,
    "island": "Maui",
    "name": "Kihei Akahi",
    "address": "2531 South Kihei Road",
    "type": "CONDOMINIUM HOTEL",
    "year_open": "1977"
  },
  {
    "lat": 766141.6237,
    "lon": 2291993.392,
    "island": "Maui",
    "name": "Maui Kamaole",
    "address": "2777 South Kihei Road",
    "type": "CONDOMINIUM HOTEL",
    "year_open": "1989"
  },
  {
    "lat": 763684.6719,
    "lon": 2300507.855,
    "island": "Maui",
    "name": "Sugar Beach Resort",
    "address": "145 North Kihei Road",
    "type": "CONDOMINIUM HOTEL",
    "year_open": "1976"
  },
  {
    "lat": 465564.0584,
    "lon": 2438523.647,
    "island": "Kauai",
    "name": "Wailua Bay View Resort",
    "address": "320 Papaloa Road",
    "type": "CONDOMINIUM HOTEL",
    "year_open": "1972"
  },
  {
    "lat": 766727.4888,
    "lon": 2289437.792,
    "island": "Maui",
    "name": "Wailea Beach Villas",
    "address": "3800 Wailea Alanui Drive",
    "type": "CONDOMINIUM HOTEL",
    "year_open": "2006"
  },
  {
    "lat": 766541.1027,
    "lon": 2290138.95,
    "island": "Maui",
    "name": "Andaz Maui at Wailea Resort",
    "address": "3550 Wailea Alanui Drive",
    "type": "HOTEL",
    "year_open": "1978"
  },
  {
    "lat": 742864.3658,
    "lon": 2324022.071,
    "island": "Maui",
    "name": "Montage Kapalua Bay",
    "address": "1 Bay Drive",
    "type": "CONDOMINIUM HOTEL",
    "year_open": ""
  },
  {
    "lat": 828635.6114,
    "lon": 2208067.078,
    "island": "Hawaii",
    "name": "Mauna Lani, Auberge Resorts Collection",
    "address": "68-1400 Mauna Lani Drive",
    "type": "HOTEL",
    "year_open": "1983"
  },
  {
    "lat": 815083.334,
    "lon": 2174431.692,
    "island": "Hawaii",
    "name": "Kona Seaside Hotel",
    "address": "75-5646 Palani Road",
    "type": "HOTEL",
    "year_open": "1960"
  },
  {
    "lat": 443774.1859,
    "lon": 2457354.851,
    "island": "Kauai",
    "name": "Hanalei Colony Resort",
    "address": "5-7130 Kuhio Highway",
    "type": "HOTEL",
    "year_open": "1969"
  },
  {
    "lat": 621751.5845,
    "lon": 2353233.943,
    "island": "Oahu",
    "name": "Moana Surfrider, A Westin Resort & Spa",
    "address": "2365 Kalakaua Avenue",
    "type": "HOTEL",
    "year_open": "1901"
  },
  {
    "lat": 452242.6022,
    "lon": 2419256.856,
    "island": "Kauai",
    "name": "Sheraton Kauai Resort",
    "address": "2440 Hoonani Road",
    "type": "HOTEL",
    "year_open": "1968"
  },
  {
    "lat": 818482.447,
    "lon": 2165519.395,
    "island": "Hawaii",
    "name": "Sheraton Kona Resort & Spa Keauhou Bay",
    "address": "78-128 Ehukai Street",
    "type": "HOTEL",
    "year_open": "2004"
  },
  {
    "lat": 739874.8018,
    "lon": 2315781.51,
    "island": "Maui",
    "name": "Sheraton Maui Resort & Spa",
    "address": "2605 Kaanapali Parkway",
    "type": "HOTEL",
    "year_open": "1963"
  },
  {
    "lat": 621854.7566,
    "lon": 2353266.241,
    "island": "Oahu",
    "name": "Sheraton Princess Kaiulani Hotel",
    "address": "120 Kaiulani Avenue",
    "type": "HOTEL",
    "year_open": "1955"
  },
  {
    "lat": 621336.3927,
    "lon": 2353301.648,
    "island": "Oahu",
    "name": "Sheraton Waikiki Hotel",
    "address": "2255 Kalakaua Avenue",
    "type": "HOTEL",
    "year_open": "1971"
  },
  {
    "lat": 448852.2038,
    "lon": 2457440.181,
    "island": "Kauai",
    "name": "St. Regis Princeville",
    "address": "5520 Ka Haku Road",
    "type": "HOTEL",
    "year_open": "1985"
  },
  {
    "lat": 621336.3927,
    "lon": 2353301.648,
    "island": "Oahu",
    "name": "The Royal Hawaiian, A Luxury Collection Resort",
    "address": "2259 Kalakaua Avenue",
    "type": "HOTEL",
    "year_open": "1927"
  },
  {
    "lat": 739841.4038,
    "lon": 2315016.399,
    "island": "Maui",
    "name": "The Westin Maui Resort & Spa",
    "address": "2365 Kaanapali Parkway",
    "type": "HOTEL",
    "year_open": "1971"
  },
  {
    "lat": 622131.7169,
    "lon": 2352839.299,
    "island": "Oahu",
    "name": "Waikiki Beach Marriott Resort & Spa",
    "address": "2552 Kalakaua Avenue",
    "type": "HOTEL",
    "year_open": "1971"
  },
  {
    "lat": 595943.7923,
    "lon": 2358961.099,
    "island": "Oahu",
    "name": "Embassy Suites by Hilton Oahu Kapolei",
    "address": "725 Manawai Street",
    "type": "HOTEL",
    "year_open": "2017"
  },
  {
    "lat": 739860.7331,
    "lon": 2314429.683,
    "island": "Maui",
    "name": "Hyatt Regency Maui Resort and Spa",
    "address": "200 Nohea Kai Drive",
    "type": "HOTEL",
    "year_open": "1980"
  },
  {
    "lat": 622266.0121,
    "lon": 2352863.216,
    "island": "Oahu",
    "name": "Hyatt Place Waikiki Beach",
    "address": "175 Paoakalani Avenue",
    "type": "HOTEL",
    "year_open": "1970"
  },
  {
    "lat": 621639.6578,
    "lon": 2353569.026,
    "island": "Oahu",
    "name": "Hyatt Centric Waikiki Beach",
    "address": "349 Seaside Avenue",
    "type": "HOTEL",
    "year_open": "2017"
  },
  {
    "lat": 621895.0367,
    "lon": 2353146.388,
    "island": "Oahu",
    "name": "Hyatt Regency Waikiki Beach Resort & Spa",
    "address": "2424 Kalakaua Avenue",
    "type": "HOTEL",
    "year_open": "1976"
  },
  {
    "lat": 622105.3568,
    "lon": 2353243.6,
    "island": "Oahu",
    "name": "Waikiki Park Heights",
    "address": "2440 Kuhio Ave",
    "type": "CONDOMINIUM HOTEL",
    "year_open": "1973"
  },
  {
    "lat": 740920.2909,
    "lon": 2319779.452,
    "island": "Maui",
    "name": "Polynesian Shores (Estimate)",
    "address": "3975 Lower Honoapiilani Road",
    "type": "CONDOMINIUM HOTEL",
    "year_open": "1973"
  },
  {
    "lat": 848506.2948,
    "lon": 2217280.737,
    "island": "Hawaii",
    "name": "Waimea Country Lodge (Estimate)",
    "address": "65-1210 Lindsey Road",
    "type": "HOTEL",
    "year_open": "1976"
  },
  {
    "lat": 622252.7428,
    "lon": 2352701.716,
    "island": "Oahu",
    "name": "Waikiki Grand Hotel (Estimate)",
    "address": "134 Kapahulu Avenue",
    "type": "CONDOMINIUM HOTEL",
    "year_open": "1963"
  },
  {
    "lat": 621107.8185,
    "lon": 2353481.452,
    "island": "Oahu",
    "name": "Waikiki Shore (Estimate)",
    "address": "2161 Kalia Road",
    "type": "CONDOMINIUM HOTEL",
    "year_open": "1960"
  },
  {
    "lat": 453733.6383,
    "lon": 2418638.466,
    "island": "Kauai",
    "name": "Poipu Shores Resort (Estimate)",
    "address": "1775 Pee Road",
    "type": "CONDOMINIUM HOTEL",
    "year_open": "1976"
  },
  {
    "lat": 740571.1623,
    "lon": 2318740.994,
    "island": "Maui",
    "name": "Paki Maui (Estimate)",
    "address": "3615 Lower Honoapiilani Road",
    "type": "CONDOMINIUM HOTEL",
    "year_open": "1976"
  },
  {
    "lat": 725548.3166,
    "lon": 2330578.045,
    "island": "Molokai",
    "name": "Molokai Shores (Estimate)",
    "address": "Kamehameha Highway, Star Route",
    "type": "CONDOMINIUM HOTEL",
    "year_open": "1977"
  },
  {
    "lat": 466854.6752,
    "lon": 2439607.964,
    "island": "Kauai",
    "name": "The ISO (Estimate)",
    "address": "4-796 Kuhio Highway",
    "type": "HOTEL",
    "year_open": "1973"
  },
  {
    "lat": 453932.7844,
    "lon": 2418525.721,
    "island": "Kauai",
    "name": "Makahuena at Poipu (Estimate)",
    "address": "1661 Pee Road",
    "type": "CONDOMINIUM HOTEL",
    "year_open": "1997"
  },
  {
    "lat": 815905.1038,
    "lon": 2173257.118,
    "island": "Hawaii",
    "name": "Kona Reef Hotel (Estimate)",
    "address": "75-5888 Alii Drive",
    "type": "CONDOMINIUM HOTEL",
    "year_open": "1981"
  },
  {
    "lat": 466979.805,
    "lon": 2439769.15,
    "island": "Kauai",
    "name": "Kauai Kailani I & II (Estimate)",
    "address": "4-856 Kuhio Highway",
    "type": "CONDOMINIUM HOTEL",
    "year_open": "1969"
  },
  {
    "lat": 465155.451,
    "lon": 2436731.083,
    "island": "Kauai",
    "name": "Kaha Lani Resort (Estimate)",
    "address": "4460 Nehe Road",
    "type": "CONDOMINIUM HOTEL",
    "year_open": "1977"
  },
  {
    "lat": 912427.5946,
    "lon": 2186127.008,
    "island": "Hawaii",
    "name": "Hilo Hawaiian Hotel (Estimate)",
    "address": "71 Banyan Drive",
    "type": "HOTEL",
    "year_open": "1975"
  },
  {
    "lat": 826476.1042,
    "lon": 2206270.258,
    "island": "Hawaii",
    "name": "Halii Kai at Waikoloa (Estimate)",
    "address": "69-1033 Nawahine Place",
    "type": "CONDOMINIUM HOTEL",
    "year_open": "2007"
  },
  {
    "lat": 742492.2016,
    "lon": 2323021.846,
    "island": "Maui",
    "name": "Napili Point Phase I",
    "address": "5295 Lower Honoapiilani Road",
    "type": "CONDOMINIUM HOTEL",
    "year_open": "1977"
  },
  {
    "lat": 740723.4624,
    "lon": 2319169.368,
    "island": "Maui",
    "name": "Makani Sands",
    "address": "3765 Lower Honoapiilani Road",
    "type": "CONDOMINIUM HOTEL",
    "year_open": "1975"
  },
  {
    "lat": 740723.4624,
    "lon": 2319169.368,
    "island": "Maui",
    "name": "Makani Sands",
    "address": "3765 Lower Honoapiilani Road",
    "type": "CONDOMINIUM HOTEL",
    "year_open": "1975"
  },
  {
    "lat": 741893.8252,
    "lon": 2309263.723,
    "island": "Maui",
    "name": "Lahaina Shores",
    "address": "475 Front Street",
    "type": "CONDOMINIUM HOTEL",
    "year_open": "1974"
  },
  {
    "lat": 741313.9141,
    "lon": 2320906.263,
    "island": "Maui",
    "name": "Hololani",
    "address": "4401 Lower Honoapiilani Road",
    "type": "CONDOMINIUM HOTEL",
    "year_open": "1973"
  },
  {
    "lat": 630294.6403,
    "lon": 2369876.618,
    "island": "Oahu",
    "name": "Hale Paradiso",
    "address": "684 Kaimalino Street",
    "type": "BED & BREAKFAST",
    "year_open": "1978"
  },
  {
    "lat": 630217.4013,
    "lon": 2369983.289,
    "island": "Oahu",
    "name": "Ka Hale Lai",
    "address": "735 Nunu Street",
    "type": "BED & BREAKFAST",
    "year_open": "1989"
  },
  {
    "lat": 620395.0337,
    "lon": 2354290.522,
    "island": "Oahu",
    "name": "Marina Tower Waikiki (Estimate)",
    "address": "1700 Ala Moana Boulevard",
    "type": "CONDOMINIUM HOTEL",
    "year_open": "1975"
  },
  {
    "lat": 622052.5211,
    "lon": 2353127.074,
    "island": "Oahu",
    "name": "Kuhio Village Resort Hotel",
    "address": "2450 Prince Edward Street",
    "type": "CONDOMINIUM HOTEL",
    "year_open": "1967"
  },
  {
    "lat": 780524.8846,
    "lon": 2310978.801,
    "island": "Maui",
    "name": "Lilikoi Lani",
    "address": "2460 Kaupakalua Road",
    "type": "BED & BREAKFAST",
    "year_open": ""
  },
  {
    "lat": 465780.5392,
    "lon": 2438659.492,
    "island": "Kauai",
    "name": "Lanikai Resort",
    "address": "390 Papaloa Road",
    "type": "CONDOMINIUM HOTEL",
    "year_open": "1979"
  },
  {
    "lat": 462472.2379,
    "lon": 2427480.065,
    "island": "Kauai",
    "name": "Kauai Inn",
    "address": "2430 Hulemalu Road",
    "type": "HOTEL",
    "year_open": "1890"
  },
  {
    "lat": 912678.2799,
    "lon": 2186166.688,
    "island": "Hawaii",
    "name": "Hilo Seaside Hotel",
    "address": "126 Banyan Drive",
    "type": "HOTEL",
    "year_open": "1960"
  }
 ]